{ "html_attributions": [], "next_page_token": "CrQCIQEAAMJRhqatT0NpUBmMOikt8ogqHQtEY1ixH_BzD38KMXAYzbU8GdDWCvLwe6cRR6Dj0rxGaFhzN_STj4SXrT5HIPHe6NBrudbSiq2Ky_J02_oaEYzAKUdVIG3dFgkZ0vN983TRvB1980A6nyrlgKzLgzq1uDRQrBp7EerhEIfM91wpxh9IkGhQQMCRnyLDVhzy4MpBIcRClwjG6zoEWw46wFoJF0zXaIej7myhEQIONQQfdVIQ3hSKijFmY9vMRi86_8dRvHbDKizTy0vUQ27qCOVibI30A1i0Dym5nwriERshL9hug27k4iDHWo2kaWTRJWPMOQhETdkoI5ve1-PAl2frE9w_7aIg5NaWzPTZbsLSpPYy8sMP0QtDMZTlfhgdXv5klHUH2UL72Os1DF6c6ugSEFsQGP3FmByUEcG93Eonx6EaFKEess9-LAnpUXafqNh_mndPo1RA", "results": [{ "geometry": { "location": { "lat": 25.464519, "lng": 81.871876 }, "viewport": { "northeast": { "lat": 25.4658679802915, "lng": 81.8732249802915 }, "southwest": { "lat": 25.4631700197085, "lng": 81.87052701970849 } } }, "icon": "https://maps.gstatic.com/mapfiles/place_api/icons/generic_business-71.png", "id": "ec933db8c316954d0df7c101ee7f52772cd15b36", "name": "Mahakumbh Darshan (A Religious Way )", "opening_hours": { "open_now": false, "weekday_text": [] }, "photos": [{ "height": 866, "html_attributions": ["<a href=\"https://maps.google.com/maps/contrib/112216853499787169925/photos\">Sonu Kesarwani</a>"], "photo_reference": "CmRaAAAA9eFPFjWoAetBU8a2syY_71q1Qix_eO5f5e295RnHNn9oTT8PYkehIJW2YEKPiA-YApudByIopc5m9wFvV4H38qyakjyI8XpKZLghL-MYhYIZcg-Ux7AXqLmlUVGaVod_EhCWe5oelv-ng3pgNkqW7KNtGhR5P313dDvwG0mZtt5q8fBUUxi9yA", "width": 720 }], "place_id": "ChIJL4kN1Ga1mjkRMiB2iAzNaH8", "rating": 2.4, "reference": "CmRRAAAA2LDsdizXQmtTPE_jvGqbGy1O7dohl2Y8p5D-B0I57LmGm_2qXnpY_-sTb_uIdHQ-hej32uYMAtLF3cjWMvt67eKakWuRHGwCmdvDDLHULFjyP848KCRewXRLqBychsi8EhCNzfXNbXZc3oFnYk7q-eZnGhQVSMO889N9nVT2lEfetXIffkx9CA", "scope": "GOOGLE", "types": ["place_of_worship", "point_of_interest", "establishment"], "vicinity": "133 E, Gangapuram, Bhrigu Marg, Chotta Baghara, Allahabad" }, { "geometry": { "location": { "lat": 25.5025001, "lng": 81.8625866 }, "viewport": { "northeast": { "lat": 25.50384908029151, "lng": 81.86393558029151 }, "southwest": { "lat": 25.5011511197085, "lng": 81.8612376197085 } } }, "icon": "https://maps.gstatic.com/mapfiles/place_api/icons/generic_business-71.png", "id": "29cff7511696e4244f5cf03cac635ebbabd7f097", "name": "Sri Serveshwari Samooh Ashram", "place_id": "ChIJGcgEJXTKmjkRtq8CmRF_eGI", "rating": 3, "reference": "CmRRAAAATtgLAP1im6zuc0X-NTRPoL7tEl4DSfhYk_LzgfxXnUg4vTXCohyusUhF3rhYPcVADUGnPfmViRaYK0gkvduQ2STfs5Iwjreq2v5zwKxKbzOPr4dWTuhiI-I52AbNFUblEhDMqYGUZvQJb4FAlreDVlKUGhT3powL70ES19wSl8DjSAKkafpd1g", "scope": "GOOGLE", "types": ["place_of_worship", "point_of_interest", "establishment"], "vicinity": "133/13a,, 133/13a, Pitambar Nagar, Teliarganj, Allahabad" }, { "geometry": { "location": { "lat": 25.48978109999999, "lng": 81.86581009999999 }, "viewport": { "northeast": { "lat": 25.4911300802915, "lng": 81.8671590802915 }, "southwest": { "lat": 25.48843211970849, "lng": 81.86446111970848 } } }, "icon": "https://maps.gstatic.com/mapfiles/place_api/icons/worship_hindu-71.png", "id": "4a389612ddc73f85f55421d1768852e1679afa11", "name": "विश्व हिन्दू महासभा", "place_id": "ChIJYxrVVn_KmjkRqMYBvzhCfeI", "reference": "CmRSAAAAlT1_98DQGiPNPRKlMki2xoOt1KRuAoJ-savBNmpHQfKo4XYizBpr8_xfZST5vDKHjd7ICcFSiC5XLgMyOINbBZUTvbrb1YVU7toNrPs2gZCUjfLiz6QaS2F2gss7Pf2-EhBQn8TGltqQYhyrRP_-YPfHGhRfXuXkpYpm4n7Vs9BC1PyT2S_SmA", "scope": "GOOGLE", "types": ["hindu_temple", "place_of_worship", "point_of_interest", "establishment"], "vicinity": "29/1B, Shivkuti Road, MNNIT Allahabad Campus, Teliarganj, Allahabad" }, { "geometry": { "location": { "lat": 25.4720724, "lng": 81.8474093 }, "viewport": { "northeast": { "lat": 25.4735279302915, "lng": 81.84851793029151 }, "southwest": { "lat": 25.4708299697085, "lng": 81.8458199697085 } } }, "icon": "https://maps.gstatic.com/mapfiles/place_api/icons/worship_general-71.png", "id": "268164bec728b3adf7bfd943f9382ade00ef0079", "name": "Allahabad Bible Seminary", "photos": [{ "height": 3120, "html_attributions": ["<a href=\"https://maps.google.com/maps/contrib/113327290401476611221/photos\">Arpit Andrew Noel</a>"], "photo_reference": "CmRaAAAA35GjjLIpCxFfovog2ryRc97Y53DNLsqBBDNh3hHwYZg7olzyQTXdvDzVIOgLW9HH8oPyLO_qHP_rBf_xLAPgnrIJYi2UyC8TvLOs12E9Tr2A7jLUb5bjkE-Dv0ztUG1FEhD_J0oUAfkZge6izAfBEN_PGhS0fgQZepVNjXEr1UsvTAadUMk8LA", "width": 4160 }], "place_id": "ChIJ_X6dho3KmjkRXT8_nLMEHnE", "rating": 4.2, "reference": "CmRRAAAAf0-uFgUE4iUsP36yhtKwjEYTc8MQfdbpjWfSnqVlaLJipKPoT6OPysZsYffC0tgYSU5sefBdclSDAL2Xsi8Q4mhOYWjm6Om-WmQNOx2TgDGFz_QZ3LxBRcWVJ_zeY9BEEhCIz409qBF-ZVJBDil1ymfIGhQkQCCRnxz5gB1Gz1eNYJUPBHXzQA", "scope": "GOOGLE", "types": ["church", "place_of_worship", "point_of_interest", "establishment"], "vicinity": "Stanley Road, Old Katra, Allahabad" }, { "geometry": { "location": { "lat": 25.4629402, "lng": 81.8658337 }, "viewport": { "northeast": { "lat": 25.46428918029151, "lng": 81.86718268029149 }, "southwest": { "lat": 25.4615912197085, "lng": 81.86448471970849 } } }, "icon": "https://maps.gstatic.com/mapfiles/place_api/icons/generic_business-71.png", "id": "12be69a623f17770d76ebc2674ee40350ea1aa1f", "name": "Sri Sri Satya Gopal Ashram", "place_id": "ChIJl4Z42Z_KmjkRijMRZJqtCbs", "rating": 4.5, "reference": "CmRSAAAAjksfev7z29pQZlhHRC8qA4XGYrF6--lncbD4Hlty1LOPW0FzSdPMA-OniOgH2X0FF-c0ESbFtszaNjFZgriJcnhqfGLxXW_Xn9g-BvXSVWaMX16SRxAdYggYv2pWnrzrEhBPs7fEiBDpmPmVAGNQztf1GhSRkb9ZnCasSr296CWQReenrVgW1w", "scope": "GOOGLE", "types": ["place_of_worship", "point_of_interest", "establishment"], "vicinity": "82, Allenganj, Allahabad, Allahabad" }, { "geometry": { "location": { "lat": 25.458264, "lng": 81.87469 }, "viewport": { "northeast": { "lat": 25.4596129802915, "lng": 81.87603898029151 }, "southwest": { "lat": 25.4569150197085, "lng": 81.8733410197085 } } }, "icon": "https://maps.gstatic.com/mapfiles/place_api/icons/worship_hindu-71.png", "id": "4eb5a31eaa5ae58232a0ce219faaf3c4b2409246", "name": "Hanuman Temple", "place_id": "ChIJ-X0p_Fy1mjkRH9T_OM4Arf4", "reference": "CmRSAAAAWTD2z5dzts8fIqA8-GcGeOrMnVCL_RLH7WLKGbSaPUuM0GkGTWwvE1vY-41vz8jPtscmnBvNFg2toaz7bvI5M_ObLC8ciKyUIF0fOtW7jZ84ww18gVrWZTEXmGxt1fbREhA3UusVWhCy0rL0iiXR2QpDGhTiybaYwXrhNsbE5XCa4ik78yhISQ", "scope": "GOOGLE", "types": ["hindu_temple", "place_of_worship", "point_of_interest", "establishment"], "vicinity": "Near Bakshi Bandh, Bakshi Rd, Bakshi Nagar, Allahabad" }, { "geometry": { "location": { "lat": 25.4615035, "lng": 81.8562378 }, "viewport": { "northeast": { "lat": 25.4628524802915, "lng": 81.8575867802915 }, "southwest": { "lat": 25.4601545197085, "lng": 81.85488881970849 } } }, "icon": "https://maps.gstatic.com/mapfiles/place_api/icons/worship_hindu-71.png", "id": "b5e8173abc2de80aec71a9a124340e23f0f34c93", "name": "Arya Samaj Mandir", "photos": [{ "height": 3120, "html_attributions": ["<a href=\"https://maps.google.com/maps/contrib/106171639525946076917/photos\">China Chandnichowk</a>"], "photo_reference": "CmRaAAAAw30G2CCz88J92N6YqKnGAR_gVWSyDVxbQoMPIHbBtNMFjI1x1mDTwBktz-SqdhOUUUowk9mNZeeqifCFzrqSPJVELCfRnKFDelABYwZ4X13eqr_GfrlVfkQS0wtw-TuvEhAVuMf4fcErcMrbJhMIpd1uGhQjfAv5TtshGAU88QvzMc_ph532wA", "width": 4160 }], "place_id": "ChIJrz7vE5jKmjkRoH7ndUd5lQ8", "rating": 4.5, "reference": "CmRRAAAA0pcIr611Wp-6MQpbrRpD7eyDX7yWFwfb7bFxE_unKtXsqfC1ZF79er8lJnVWJga1mrpkJer_STK7wsZ2dwmEEVRWsLOqFHPYsClIHjgS5hJEpRWL1BI22qtMP2AvM2M2EhD4dR9FNw1sAwqVvo43ANp_GhSPBgn4xUFr35v0XI9qg8SMJzp6jQ", "scope": "GOOGLE", "types": ["hindu_temple", "place_of_worship", "point_of_interest", "establishment"], "vicinity": "21, University Road, Colnel Ganj, George Town, Allahabad" }, { "geometry": { "location": { "lat": 25.4608336, "lng": 81.8563692 }, "viewport": { "northeast": { "lat": 25.4621825802915, "lng": 81.8577181802915 }, "southwest": { "lat": 25.45948461970849, "lng": 81.85502021970849 } } }, "icon": "https://maps.gstatic.com/mapfiles/place_api/icons/worship_hindu-71.png", "id": "e47247cfd15879b047f3a94d2a2e7ad94e759e58", "name": "Arya Samaj Katra Prayag", "place_id": "ChIJwU2LqqLKmjkRzGzvu0622qY", "rating": 4.5, "reference": "CmRSAAAAkbwZCfi_EdFGkjR4xv7oXljv1yj46ow-Bjqaf9fv3SGeqnXZu7FgudCuDE58ZHcDaLjf8wp7UwwsD9qdyJj4bhegUuSSfrb_TOfYz69NIvdv-XzR-KexZnomQmxO15cxEhBzIcZc-EmJW1_KoidHHSIuGhSB6WvuiUEA2dKJqh5u6yOin1et6Q", "scope": "GOOGLE", "types": ["hindu_temple", "place_of_worship", "point_of_interest", "establishment"], "vicinity": "Near SBI ATM, Colnel Ganj Road, Colnel Ganj, Allahabad" }, { "geometry": { "location": { "lat": 25.4997618, "lng": 81.8752781 }, "viewport": { "northeast": { "lat": 25.5011107802915, "lng": 81.8766270802915 }, "southwest": { "lat": 25.4984128197085, "lng": 81.87392911970849 } } }, "icon": "https://maps.gstatic.com/mapfiles/place_api/icons/generic_business-71.png", "id": "a6e65915e7cc8fa9384fb958fc8549bf93f13e1f", "name": "Shiv Kuti Temple", "photos": [{ "height": 3120, "html_attributions": ["<a href=\"https://maps.google.com/maps/contrib/108850308931813388885/photos\">Vishal Shukla</a>"], "photo_reference": "CmRaAAAAz5PD9hdxEwiM82g6x8J-Ggyze8biRRWRCW8yrxvnMWhjjjw_71cf9xTWqYLC7Bh54Lu6ipirqC5PVdLRH31pU-EMQnPhpyoSkaqCB8I4v__Xaw1XFXha3ldIClNlTR-XEhDWr1DUnXqylIoYgw3_S5qQGhSvkmEJTniE_jGyA2n_3vVAtMAN2g", "width": 4160 }], "place_id": "ChIJA_Jsuo-1mjkRvoqEdhQl-Jo", "rating": 4.2, "reference": "CmRSAAAA-yZfjhCEVO_lQ28rCobFM7h1AwltHACI5EoMAWTalg2QR3hCmv9txvgYSDfMG3w_cr9kX9tglWzV6jzFs137MX79A6bj6LI_WzCihvYjYRvJcPy6x_aen0kwKpFT7fBVEhBUKSBJQ9MCrlnVtBWbcD-dGhRRsg8XhtS33tPClr7VZosPb6e-BQ", "scope": "GOOGLE", "types": ["place_of_worship", "point_of_interest", "establishment"], "vicinity": "Shiv Kuti,, Allahabad" }, { "geometry": { "location": { "lat": 25.4997548, "lng": 81.8752992 }, "viewport": { "northeast": { "lat": 25.5011037802915, "lng": 81.87664818029151 }, "southwest": { "lat": 25.4984058197085, "lng": 81.8739502197085 } } }, "icon": "https://maps.gstatic.com/mapfiles/place_api/icons/worship_hindu-71.png", "id": "ecb6369cdceaa68ae6dd5f18ae0124ae1a12bf98", "name": "Shiv Kuti Mandir", "photos": [{ "height": 4160, "html_attributions": ["<a href=\"https://maps.google.com/maps/contrib/110900734263047074733/photos\">Akash Tiwari</a>"], "photo_reference": "CmRaAAAAFCVU1a8mxG-WicfSdW6IhJ35yAHEnV9aBukDCNc6sf9WsHeYjN9soolFCp8QAYoEyP2vuzEI67ahU4Y7H7zCOcybctnR9cWdb0IN8KHJSu17bfJdi_FhB9OzGRkK0WJoEhCh02ip3A6pkz530yjJrB3wGhTMBQ8kgdqC6tP89l5x1qfqDQrfZQ", "width": 3120 }], "place_id": "ChIJM8W9TI61mjkRziPCcvx8qHc", "rating": 4, "reference": "CmRRAAAALHlUwd1f-qwF6u9IbQf9gyAdNf9x2201j24e1xxLX02lAp0trC2H98mEuXFIOyG9ribij1PoUOGPz_qOei5S16_G7Cbd9IxjZa7wto20y6bHGxPBhw84EA-bLdV49eO9EhCLouI5PIPYOinHHsYZwvdUGhTq9LB2j3Z_2OSzO-XoPUSsGnx58Q", "scope": "GOOGLE", "types": ["hindu_temple", "place_of_worship", "point_of_interest", "establishment"], "vicinity": "Teliarganj, Shivkuti, Govindpur, Teliarganj, Allahabad" }, { "geometry": { "location": { "lat": 25.49976329999999, "lng": 81.87540249999999 }, "viewport": { "northeast": { "lat": 25.5011122802915, "lng": 81.8767514802915 }, "southwest": { "lat": 25.49841431970849, "lng": 81.8740535197085 } } }, "icon": "https://maps.gstatic.com/mapfiles/place_api/icons/worship_hindu-71.png", "id": "9be9b36ca610bbc5a6f012998f66e10e6aa8c155", "name": "कोटेश्वर महादेव मंदिर", "photos": [{ "height": 1440, "html_attributions": ["<a href=\"https://maps.google.com/maps/contrib/111751445772232362013/photos\">SHUBHAM CHAURASIYA</a>"], "photo_reference": "CmRaAAAA5wAu_upUN5Umwugv-uFjTxjIG7X0co0H2ScumXFnrgZzLZ0tUVvdmJNrB-xDrJhkUKmiMrI_v0V2S33gboB_f1fWhWsGDWJjV7ngYzEGK9lOznRRqrQ4h-H0dYLvYkScEhCvgQs7uv5GBSW8hWP9Hn-MGhS9sOqquw9kvWl_Ri1HzR4gT-9qfw", "width": 2560 }], "place_id": "ChIJX0pdS461mjkRn4xbOduYbJU", "rating": 4.7, "reference": "CmRSAAAANDwts6wEeR11SZtcZIOhorweFbeuAEymYoGCYz-nFYkqE2-5J1pbt1Mfg8x1CafvziazdqlNKQ07bB4ey1J219RueHcPQv6Hl05ilc_usgkigHViDPcHISARsMAvl5snEhDPoM25DLOG-gt5gXeTcgaaGhRbAB32wV88PIAlUqPVSxFqEEIDfQ", "scope": "GOOGLE", "types": ["hindu_temple", "place_of_worship", "point_of_interest", "establishment"], "vicinity": "Shivkuti, Govindpur, Teliarganj, Allahabad" }, { "geometry": { "location": { "lat": 25.499572, "lng": 81.8745368 }, "viewport": { "northeast": { "lat": 25.5009209802915, "lng": 81.87588578029151 }, "southwest": { "lat": 25.4982230197085, "lng": 81.87318781970849 } } }, "icon": "https://maps.gstatic.com/mapfiles/place_api/icons/worship_hindu-71.png", "id": "a666153bff5721cca529b6445e3489f55853d0f1", "name": "Hanumaan Mandir", "photos": [{ "height": 3120, "html_attributions": ["<a href=\"https://maps.google.com/maps/contrib/105151958793887233565/photos\">Rudresh Sharma</a>"], "photo_reference": "CmRaAAAAi_yD3hvlPS0oV69MGLrAvf9EoObPanYJyhwV0aZ_bZGxgqwCCxa7kmpMnsSs7lEkPMiVvTGXm7Po3Nyyc-DWJqrlC6rM_2bCIcNvAk8W7gxY77fsVlpPi3R0MHOcUoS4EhCMNS2_oIgWvBbJj4Np5As-GhTRtC1AUSHmxXawHNGueF65wOFgwA", "width": 4160 }], "place_id": "ChIJn60lq4-1mjkRw_M9jvJ0XBQ", "rating": 4, "reference": "CmRRAAAA-rRDiO_MM1EZoCQhfuHj_jipPRYWRTywDINMSP9BvL26bFR4yYedj1oM3Ul0bRWY-jM0LHHINFdkjnj_vMHCJhp8rEMtbGEP_cswyMbINDjn11s3iMg7_P5pIWSL0cLvEhAOarPPyANmGcci5xLj86pjGhQ417QSg22LO3Dq1XR-6rHB1eHwxw", "scope": "GOOGLE", "types": ["hindu_temple", "place_of_worship", "point_of_interest", "establishment"], "vicinity": "Shivkuti, Govindpur, Teliarganj, Allahabad" }, { "geometry": { "location": { "lat": 25.4983085, "lng": 81.8730992 }, "viewport": { "northeast": { "lat": 25.4997021302915, "lng": 81.8744195802915 }, "southwest": { "lat": 25.4970041697085, "lng": 81.8717216197085 } } }, "icon": "https://maps.gstatic.com/mapfiles/place_api/icons/worship_hindu-71.png", "id": "ba50e59c08f7e4c8d940a5e89e069c3e0ceb7eaf", "name": "शिव कचहरी मंदिर", "place_id": "ChIJceOuFY-1mjkR0uK5Lyx_bFQ", "rating": 4, "reference": "CmRRAAAAzcsvkI1Pen-Zox5fhj3m9ZvqCFgoVwtmm3OCsy7BhSumochaHhwQXKyBSQGupaedRPnn83c571cLCgFMimNZ5n0-b8JtMvuRLWCkuuUllPeUSt5A_nL-vK5jAB4K8CP6EhClUexzy_po4tbZyE-QPfFuGhSD7a2RcIszDBDJQnBLZTUpQ-BRjA", "scope": "GOOGLE", "types": ["hindu_temple", "place_of_worship", "point_of_interest", "establishment"], "vicinity": "Teliarganj, Allahabad" }, { "geometry": { "location": { "lat": 25.4981657, "lng": 81.8731779 }, "viewport": { "northeast": { "lat": 25.4995146802915, "lng": 81.87452688029151 }, "southwest": { "lat": 25.49681671970849, "lng": 81.8718289197085 } } }, "icon": "https://maps.gstatic.com/mapfiles/place_api/icons/worship_hindu-71.png", "id": "c69864d0f579f411f0a326c760b71a292cbc451d", "name": "Shiva Kachahri 108 Shivaling Mandir", "place_id": "ChIJfxndFI-1mjkRG06BdnnfHxY", "rating": 3.3, "reference": "CmRRAAAAdZs8ZS4GEy2oGuY6yZckG1H8QtPU0iIuuoE0t0OxoPllToA1Unb04PpBLU4ltF8sboIIc67DqlrXjuy1jH5BkZr7LfhYnaJsJ3VUdxELCElayOQu93fxmjQaLt2m5gJuEhC_Og7DDqShaL3LLNivjGk5GhT_4Z7hp161Gw-tTbf6EyoI1ukDIA", "scope": "GOOGLE", "types": ["hindu_temple", "place_of_worship", "point_of_interest", "establishment"], "vicinity": "Shivkuti, Govindpur, Teliarganj, Allahabad" }, { "geometry": { "location": { "lat": 25.5005289, "lng": 81.8712035 }, "viewport": { "northeast": { "lat": 25.5018778802915, "lng": 81.8725524802915 }, "southwest": { "lat": 25.4991799197085, "lng": 81.8698545197085 } } }, "icon": "https://maps.gstatic.com/mapfiles/place_api/icons/worship_hindu-71.png", "id": "d936f4de0d73c0691c8a9c4afbad6263d0d7224c", "name": "Jagdamba Temple", "place_id": "ChIJxxJMMYm1mjkR0vkdaJy-W7s", "reference": "CmRSAAAAhOVbewYfbgrNbf9uN1J6HVk_37yjF6X6j7DW5CjtAAaVZWxIJM6n224rV-j57d-XEyLglDDGLh96ER-Qv8MyEizxjGzdkuvzqQi_1wJRZpkfNWfUC_ph6BbX_hMhlhspEhDKSDaZs547vq_NB55oUcGrGhT1d5J4I_nzIpvi3lcHWeeFdzI9fw", "scope": "GOOGLE", "types": ["hindu_temple", "place_of_worship", "point_of_interest", "establishment"], "vicinity": "211004, Shivkuti, Govindpur, Teliarganj, Allahabad" }, { "geometry": { "location": { "lat": 25.5025294, "lng": 81.8719636 }, "viewport": { "northeast": { "lat": 25.5038783802915, "lng": 81.8733125802915 }, "southwest": { "lat": 25.5011804197085, "lng": 81.87061461970849 } } }, "icon": "https://maps.gstatic.com/mapfiles/place_api/icons/worship_hindu-71.png", "id": "7f2a213c2cbcd96f3b234357de71603fa2588f3a", "name": "Gayatri Mandir (Shantikunj Hardiwar Trust)", "opening_hours": { "open_now": false, "weekday_text": [] }, "photos": [{ "height": 3264, "html_attributions": ["<a href=\"https://maps.google.com/maps/contrib/106170074172472229277/photos\">RN S</a>"], "photo_reference": "CmRaAAAAqMgAWPqUIsN4xI97T-QEjZtTA7NyQ2b9258c7D_Y1QmGQjfDHmZ57TIXt-1qj63iRDFUpknTZKJVkBeNvw_jxVoOzpyBZhPnE3JzD1oxGCY7PjoH_u5ThuKLwFoORGByEhBBPSE-4dEomhsHVVHoFlzMGhTa1HIOu3NDGZBk1XKjAwHa36SOmQ", "width": 2448 }], "place_id": "ChIJ258hAoy1mjkRovQz_iXzams", "rating": 4.7, "reference": "CmRRAAAA1YFuxb5A4WMRdgzRlO9E1wxeX-F-i3bqFVpWG0_efTIOVcnRzpgJu8kbJqTwiRPDFH9mjiQFe326XmtflKEG356NjGFIxBqbWlTcbsHN-aPHPHQ8oJYhOuSNiAPkV3SeEhB3PrqI2OnieTC-Z_ye70CXGhT4vFXeVWj9Jf-2lSOQAhOFCbYs6w", "scope": "GOOGLE", "types": ["hindu_temple", "place_of_worship", "point_of_interest", "establishment"], "vicinity": "254, Ganga Road, Shivkuti, Govindpur, Teliarganj, Allahabad" }, { "geometry": { "location": { "lat": 25.5020108, "lng": 81.8713386 }, "viewport": { "northeast": { "lat": 25.5033597802915, "lng": 81.87268758029151 }, "southwest": { "lat": 25.5006618197085, "lng": 81.8699896197085 } } }, "icon": "https://maps.gstatic.com/mapfiles/place_api/icons/worship_hindu-71.png", "id": "300859246667f8184414e1275199b182655a7d26", "name": "Durga Mandir Shivkuti", "photos": [{ "height": 2448, "html_attributions": ["<a href=\"https://maps.google.com/maps/contrib/103941067095022513190/photos\">Vishal Maurya</a>"], "photo_reference": "CmRaAAAAE73enjoY__PXqagpXrjneI97EfJPrZhJjr-rhS9WSZnXuE5SjtZ76naRZ_0TL7rW9SQnZGlDJ1q4q11Fq1NzQvWzGIscmZXerVu0wOufa0Mlb6sqCxAA6TuYtFxPANrvEhCuitmYjecdg4TiAp62ZrxEGhS0LRVyVapcitZ4W3LeFlCi7-uOmA", "width": 3264 }], "place_id": "ChIJZVb0U4m1mjkRW9i44ytZ6qw", "rating": 5, "reference": "CmRSAAAAA_T76uWcEH7zL-BwMit_-ncl_QZwrD1PyaJXDAr0aMcN1KV2BrO5Azd3vzZkFWbovesnx-PsybDGhsPCcAWOo3QgpkxSxSkkRxYvj3E4E3zhmpp2rLfr_DgZr7IwgwxFEhA9379QFjiIKWpOvhfq_k3wGhRIf3fhsV6XfE6p3hg8dYK_bes_NQ", "scope": "GOOGLE", "types": ["hindu_temple", "place_of_worship", "point_of_interest", "establishment"], "vicinity": "Ganga Road, Shivkuti, Govindpur, Allahabad" }, { "geometry": { "location": { "lat": 25.4966827, "lng": 81.87136579999999 }, "viewport": { "northeast": { "lat": 25.4980316802915, "lng": 81.8727147802915 }, "southwest": { "lat": 25.4953337197085, "lng": 81.8700168197085 } } }, "icon": "https://maps.gstatic.com/mapfiles/place_api/icons/worship_hindu-71.png", "id": "9b9df8f98172215894c6b299bab7367edff93040", "name": "Vaishno Devi Mandir", "place_id": "ChIJf6JLqoi1mjkRinU99RTOjIQ", "rating": 5, "reference": "CmRSAAAAThEWWE1fVgCEXGV_IiHvxB9AcKe_1Z-l-IcbHo7wTeZFbvTP2foWdqSm-ik0Ii5dWWOR0QrghUKOZO0AQPS_VUB7KvZOzYpXqaec7asfa8FyOOyZvZC_3Aj3WjocQcnJEhD_X2ATQ02lMxPkxjIz-pUmGhTwmcH711-gxq2zgY9Z7s-t3QrvBQ", "scope": "GOOGLE", "types": ["hindu_temple", "place_of_worship", "point_of_interest", "establishment"], "vicinity": "Govindpur, Teliarganj, Allahabad" }, { "geometry": { "location": { "lat": 25.4954576, "lng": 81.8727025 }, "viewport": { "northeast": { "lat": 25.4967983302915, "lng": 81.87405318029148 }, "southwest": { "lat": 25.4941003697085, "lng": 81.87135521970848 } } }, "icon": "https://maps.gstatic.com/mapfiles/place_api/icons/worship_hindu-71.png", "id": "b630353927ab903e01e2d5b8707144d06a09fa8e", "name": "हनुमान मंदिर", "place_id": "ChIJ_5rz64W1mjkR9cj2nNDBjRI", "rating": 5, "reference": "CmRRAAAAaPUeUNVHvRkOneBpExaQMrxIHxMBPG94SaJcTVgHNEw6dikg_DJcrATbPuXs0I1qyY2vxhPuPYkDd5P1Y9-WjNVYBwZ5hNh0z25G8FYMarwOp4L4dtvowYfECwhrVv3rEhDBF94CTgs6YbOvhpZE5FaeGhSEv7OUIlGivNFHpzJ6foJhFTTvdw", "scope": "GOOGLE", "types": ["hindu_temple", "place_of_worship", "point_of_interest", "establishment"], "vicinity": "Market Road, Govindpur, Teliarganj, Allahabad" }, { "geometry": { "location": { "lat": 25.4955069, "lng": 81.87236589999999 }, "viewport": { "northeast": { "lat": 25.4968558802915, "lng": 81.8737148802915 }, "southwest": { "lat": 25.4941579197085, "lng": 81.87101691970848 } } }, "icon": "https://maps.gstatic.com/mapfiles/place_api/icons/worship_hindu-71.png", "id": "ba120808b20fdf32a9e6c8e515e7978ba4b14551", "name": "koteshwar mahadev mandir", "photos": [{ "height": 3120, "html_attributions": ["<a href=\"https://maps.google.com/maps/contrib/110900734263047074733/photos\">Akash Tiwari</a>"], "photo_reference": "CmRaAAAAkK1eSX4hI_iWGUJRLlt0wpa3oFHgIxPMZrA4xEQY0N0c5LM0E0LO9a_y9v5YPMYAUbgcJWhy7paSL6YXylmElXVb27XGEU0q6oCKfXChbM5jzF1UrP2Sdnt9xm_RKyiNEhCSYDa00V3x4wjLwUUDBcJXGhTJ9UFxsCqBZcbjloqJWKaCVzqwNg", "width": 4160 }], "place_id": "ChIJqWhI74W1mjkRHq0dFkO-uaU", "rating": 5, "reference": "CmRSAAAA8fQvc0mKgUFwiwkYhfgMxpWfgZ8mVRMS2gghojZjRoC17EW0v-wBRjSIOVTBErZLDp10SQ1YXGOTb9-MYkX1NLh6yFgxmBLQMqIemSyeyCoWIzZLs7VetCeY3q2Su-Q-EhBnIAdiJtMxcIvCbF1BgnOJGhQ_s3bFvZGMGijVxzw_hGlyTx9v3A", "scope": "GOOGLE", "types": ["hindu_temple", "place_of_worship", "point_of_interest", "establishment"], "vicinity": "Market Road, Govindpur, Teliarganj, Allahabad" }], "status": "OK" }